{
  "_comment": "Static Chennai hospital database. Add/edit entries to match your actual nearby hospitals. Used as fallback when Overpass API is unavailable.",
  "hospitals": [
    {
      "id": "tn-gov-001",
      "name": "Rajiv Gandhi Government General Hospital",
      "hospital_type": "district",
      "address": "Park Town, Chennai, Tamil Nadu 600003",
      "latitude": 13.0827,
      "longitude": 80.2707,
      "phone": "044-25305000",
      "open_24h": true,
      "ambulance_108": true,
      "pmjay_empanelled": true
    },
    {
      "id": "tn-gov-002",
      "name": "Stanley Medical College Hospital",
      "hospital_type": "district",
      "address": "Old Jail Road, Royapuram, Chennai 600001",
      "latitude": 13.1083,
      "longitude": 80.2897,
      "phone": "044-25281541",
      "open_24h": true,
      "ambulance_108": true,
      "pmjay_empanelled": true
    },
    {
      "id": "tn-gov-003",
      "name": "Kilpauk Medical College Hospital",
      "hospital_type": "district",
      "address": "Poonamallee High Road, Kilpauk, Chennai 600010",
      "latitude": 13.0750,
      "longitude": 80.2397,
      "phone": "044-26441105",
      "open_24h": true,
      "ambulance_108": true,
      "pmjay_empanelled": true
    },
    {
      "id": "tn-gov-004",
      "name": "Government Royapettah Hospital",
      "hospital_type": "district",
      "address": "Royapettah, Chennai 600014",
      "latitude": 13.0520,
      "longitude": 80.2700,
      "phone": "044-28132200",
      "open_24h": true,
      "ambulance_108": true,
      "pmjay_empanelled": true
    },
    {
      "id": "tn-gov-005",
      "name": "Government Kasturba Gandhi Hospital for Women & Children",
      "hospital_type": "district",
      "address": "Triplicane, Chennai 600005",
      "latitude": 13.0602,
      "longitude": 80.2791,
      "phone": "044-28447100",
      "open_24h": true,
      "ambulance_108": true,
      "pmjay_empanelled": true
    },
    {
      "id": "tn-gov-006",
      "name": "Institute of Child Health & Hospital for Children",
      "hospital_type": "district",
      "address": "Halls Road, Egmore, Chennai 600008",
      "latitude": 13.0716,
      "longitude": 80.2616,
      "phone": "044-28190900",
      "open_24h": true,
      "ambulance_108": true,
      "pmjay_empanelled": true
    },
    {
      "id": "tn-gov-007",
      "name": "Government Hospital Perambur",
      "hospital_type": "district",
      "address": "Perambur Barracks Road, Perambur, Chennai 600011",
      "latitude": 13.1167,
      "longitude": 80.2417,
      "phone": "044-25512345",
      "open_24h": true,
      "ambulance_108": true,
      "pmjay_empanelled": true
    },
    {
      "id": "tn-gov-008",
      "name": "Government Hospital Tondiarpet",
      "hospital_type": "district",
      "address": "Tondiarpet, Chennai 600081",
      "latitude": 13.1195,
      "longitude": 80.2896,
      "phone": "044-25910234",
      "open_24h": false,
      "ambulance_108": true,
      "pmjay_empanelled": true
    },
    {
      "id": "tn-gov-009",
      "name": "Government Hospital Vyasarpadi",
      "hospital_type": "district",
      "address": "Vyasarpadi, Chennai 600039",
      "latitude": 13.1050,
      "longitude": 80.2600,
      "phone": "044-25910100",
      "open_24h": false,
      "ambulance_108": true,
      "pmjay_empanelled": true
    },
    {
      "id": "tn-gov-010",
      "name": "Government Hospital Aminjikarai",
      "hospital_type": "district",
      "address": "Aminjikarai, Chennai 600029",
      "latitude": 13.0716,
      "longitude": 80.2230,
      "phone": "044-23742222",
      "open_24h": false,
      "ambulance_108": true,
      "pmjay_empanelled": true
    },
    {
      "id": "tn-gov-011",
      "name": "Government Hospital Anna Nagar",
      "hospital_type": "district",
      "address": "Anna Nagar, Chennai 600040",
      "latitude": 13.0850,
      "longitude": 80.2101,
      "phone": "044-26261234",
      "open_24h": false,
      "ambulance_108": true,
      "pmjay_empanelled": true
    },
    {
      "id": "tn-gov-012",
      "name": "ESIC Hospital KK Nagar",
      "hospital_type": "esic",
      "address": "K.K. Nagar, Chennai 600078",
      "latitude": 13.0330,
      "longitude": 80.1995,
      "phone": "044-23616200",
      "open_24h": true,
      "ambulance_108": false,
      "pmjay_empanelled": false
    },
    {
      "id": "tn-gov-013",
      "name": "Government Hospital Tambaram",
      "hospital_type": "district",
      "address": "Tambaram, Chennai 600045",
      "latitude": 12.9305,
      "longitude": 80.1144,
      "phone": "044-22262222",
      "open_24h": true,
      "ambulance_108": true,
      "pmjay_empanelled": true
    },
    {
      "id": "tn-gov-014",
      "name": "Government Hospital Chromepet",
      "hospital_type": "district",
      "address": "Chromepet, Chennai 600044",
      "latitude": 12.9517,
      "longitude": 80.1433,
      "phone": "044-22381234",
      "open_24h": false,
      "ambulance_108": true,
      "pmjay_empanelled": true
    },
    {
      "id": "tn-gov-015",
      "name": "Government Hospital Adyar",
      "hospital_type": "district",
      "address": "Adyar, Chennai 600020",
      "latitude": 13.0012,
      "longitude": 80.2565,
      "phone": "044-24412345",
      "open_24h": false,
      "ambulance_108": true,
      "pmjay_empanelled": true
    },
    {
      "id": "tn-gov-016",
      "name": "Government Hospital Guindy",
      "hospital_type": "district",
      "address": "Guindy, Chennai 600032",
      "latitude": 13.0067,
      "longitude": 80.2206,
      "phone": "044-22500400",
      "open_24h": false,
      "ambulance_108": true,
      "pmjay_empanelled": true
    },
    {
      "id": "tn-gov-017",
      "name": "Government Hospital Velachery",
      "hospital_type": "district",
      "address": "Velachery, Chennai 600042",
      "latitude": 12.9815,
      "longitude": 80.2180,
      "phone": "044-22432345",
      "open_24h": false,
      "ambulance_108": true,
      "pmjay_empanelled": true
    },
    {
      "id": "tn-gov-018",
      "name": "Government Hospital Kolathur",
      "hospital_type": "district",
      "address": "Kolathur, Chennai 600099",
      "latitude": 13.1214,
      "longitude": 80.2123,
      "phone": "044-26541234",
      "open_24h": false,
      "ambulance_108": true,
      "pmjay_empanelled": true
    },
    {
      "id": "tn-gov-019",
      "name": "Government Hospital Thiruvottiyur",
      "hospital_type": "district",
      "address": "Thiruvottiyur, Chennai 600019",
      "latitude": 13.1621,
      "longitude": 80.3019,
      "phone": "044-25910300",
      "open_24h": false,
      "ambulance_108": true,
      "pmjay_empanelled": true
    },
    {
      "id": "tn-gov-020",
      "name": "Government Hospital Madhavaram",
      "hospital_type": "district",
      "address": "Madhavaram, Chennai 600060",
      "latitude": 13.1484,
      "longitude": 80.2294,
      "phone": "044-25541234",
      "open_24h": false,
      "ambulance_108": true,
      "pmjay_empanelled": true
    },
    {
      "id": "tn-phc-001",
      "name": "Primary Health Centre Royapuram",
      "hospital_type": "phc",
      "address": "Royapuram, Chennai 600013",
      "latitude": 13.1139,
      "longitude": 80.2965,
      "phone": "044-25910500",
      "open_24h": false,
      "ambulance_108": false,
      "pmjay_empanelled": true
    },
    {
      "id": "tn-phc-002",
      "name": "Primary Health Centre Pulianthope",
      "hospital_type": "phc",
      "address": "Pulianthope, Chennai 600012",
      "latitude": 13.0951,
      "longitude": 80.2801,
      "phone": "044-25910520",
      "open_24h": false,
      "ambulance_108": false,
      "pmjay_empanelled": true
    },
    {
      "id": "tn-phc-003",
      "name": "Primary Health Centre Kodambakkam",
      "hospital_type": "phc",
      "address": "Kodambakkam, Chennai 600024",
      "latitude": 13.0527,
      "longitude": 80.2219,
      "phone": "044-23722345",
      "open_24h": false,
      "ambulance_108": false,
      "pmjay_empanelled": true
    },
    {
      "id": "tn-phc-004",
      "name": "Urban Primary Health Centre Nungambakkam",
      "hospital_type": "phc",
      "address": "Nungambakkam, Chennai 600034",
      "latitude": 13.0569,
      "longitude": 80.2425,
      "phone": "044-28231234",
      "open_24h": false,
      "ambulance_108": false,
      "pmjay_empanelled": true
    },
    {
      "id": "tn-phc-005",
      "name": "Primary Health Centre Thiruvanmiyur",
      "hospital_type": "phc",
      "address": "Thiruvanmiyur, Chennai 600041",
      "latitude": 12.9864,
      "longitude": 80.2571,
      "phone": "044-24524567",
      "open_24h": false,
      "ambulance_108": false,
      "pmjay_empanelled": true
    },
    {
      "id": "tn-phc-006",
      "name": "Urban Primary Health Centre Washermanpet",
      "hospital_type": "phc",
      "address": "Washermanpet, Chennai 600021",
      "latitude": 13.1048,
      "longitude": 80.2882,
      "phone": "044-25910510",
      "open_24h": false,
      "ambulance_108": false,
      "pmjay_empanelled": true
    },
    {
      "id": "tn-phc-007",
      "name": "Primary Health Centre Ambattur",
      "hospital_type": "phc",
      "address": "Ambattur, Chennai 600053",
      "latitude": 13.0982,
      "longitude": 80.1588,
      "phone": "044-26582345",
      "open_24h": false,
      "ambulance_108": false,
      "pmjay_empanelled": true
    },
    {
      "id": "tn-phc-008",
      "name": "Primary Health Centre Valasaravakkam",
      "hospital_type": "phc",
      "address": "Valasaravakkam, Chennai 600087",
      "latitude": 13.0453,
      "longitude": 80.1763,
      "phone": "044-24765678",
      "open_24h": false,
      "ambulance_108": false,
      "pmjay_empanelled": true
    },
    {
      "id": "tn-phc-009",
      "name": "Primary Health Centre Manali",
      "hospital_type": "phc",
      "address": "Manali, Chennai 600068",
      "latitude": 13.1731,
      "longitude": 80.2621,
      "phone": "044-25912345",
      "open_24h": false,
      "ambulance_108": false,
      "pmjay_empanelled": true
    },
    {
      "id": "tn-phc-010",
      "name": "Urban Primary Health Centre Ayanavaram",
      "hospital_type": "phc",
      "address": "Ayanavaram, Chennai 600023",
      "latitude": 13.0921,
      "longitude": 80.2477,
      "phone": "044-26711234",
      "open_24h": false,
      "ambulance_108": false,
      "pmjay_empanelled": true
    },
    {
      "id": "tn-chc-001",
      "name": "Community Health Centre Thirumangalam",
      "hospital_type": "chc",
      "address": "Thirumangalam, Chennai 600107",
      "latitude": 13.0878,
      "longitude": 80.1935,
      "phone": "044-26261300",
      "open_24h": true,
      "ambulance_108": true,
      "pmjay_empanelled": true
    },
    {
      "id": "tn-chc-002",
      "name": "Community Health Centre Redhills",
      "hospital_type": "chc",
      "address": "Redhills, Chennai 600052",
      "latitude": 13.1930,
      "longitude": 80.1830,
      "phone": "044-26302345",
      "open_24h": true,
      "ambulance_108": true,
      "pmjay_empanelled": true
    },
    {
      "id": "tn-chc-003",
      "name": "Community Health Centre Sholinganallur",
      "hospital_type": "chc",
      "address": "Sholinganallur, Chennai 600119",
      "latitude": 12.9010,
      "longitude": 80.2279,
      "phone": "044-24504567",
      "open_24h": true,
      "ambulance_108": true,
      "pmjay_empanelled": true
    },
    {
      "id": "tn-pvt-001",
      "name": "Apollo Hospitals Greams Road",
      "hospital_type": "private",
      "address": "21 Greams Lane, Thousand Lights, Chennai 600006",
      "latitude": 13.0594,
      "longitude": 80.2455,
      "phone": "044-28290200",
      "open_24h": true,
      "ambulance_108": false,
      "pmjay_empanelled": true
    },
    {
      "id": "tn-pvt-002",
      "name": "Fortis Malar Hospital",
      "hospital_type": "private",
      "address": "52 1st Main Road, Gandhi Nagar, Adyar, Chennai 600020",
      "latitude": 13.0061,
      "longitude": 80.2598,
      "phone": "044-42892222",
      "open_24h": true,
      "ambulance_108": false,
      "pmjay_empanelled": true
    },
    {
      "id": "tn-pvt-003",
      "name": "MIOT International Hospital",
      "hospital_type": "private",
      "address": "4/112 Mount Poonamallee Road, Manapakkam, Chennai 600089",
      "latitude": 13.0231,
      "longitude": 80.1870,
      "phone": "044-42002288",
      "open_24h": true,
      "ambulance_108": false,
      "pmjay_empanelled": true
    },
    {
      "id": "tn-pvt-004",
      "name": "Sri Ramachandra Institute of Higher Education and Research",
      "hospital_type": "private",
      "address": "No.1, Ramachandra Nagar, Porur, Chennai 600116",
      "latitude": 13.0412,
      "longitude": 80.1610,
      "phone": "044-45928888",
      "open_24h": true,
      "ambulance_108": false,
      "pmjay_empanelled": true
    },
    {
      "id": "tn-pvt-005",
      "name": "Kauvery Hospital Alwarpet",
      "hospital_type": "private",
      "address": "199 Luz Church Road, Mylapore, Chennai 600004",
      "latitude": 13.0399,
      "longitude": 80.2680,
      "phone": "044-40006000",
      "open_24h": true,
      "ambulance_108": false,
      "pmjay_empanelled": true
    },
    {
      "id": "tn-pvt-006",
      "name": "Madras Medical Mission",
      "hospital_type": "private",
      "address": "4A Dr.J.J.Nagar, Mogappair, Chennai 600037",
      "latitude": 13.0627,
      "longitude": 80.2286,
      "phone": "044-26565900",
      "open_24h": true,
      "ambulance_108": false,
      "pmjay_empanelled": true
    },
    {
      "id": "tn-pvt-007",
      "name": "Global Hospitals Chennai",
      "hospital_type": "private",
      "address": "439, Cheran Nagar, Perumbakkam, Chennai 600100",
      "latitude": 12.9424,
      "longitude": 80.1996,
      "phone": "044-44777000",
      "open_24h": true,
      "ambulance_108": false,
      "pmjay_empanelled": true
    },
    {
      "id": "tn-pvt-008",
      "name": "Vijaya Hospital",
      "hospital_type": "private",
      "address": "180 NSK Salai, Vadapalani, Chennai 600026",
      "latitude": 13.0502,
      "longitude": 80.2117,
      "phone": "044-24809000",
      "open_24h": true,
      "ambulance_108": false,
      "pmjay_empanelled": false
    },
    {
      "id": "tn-pvt-009",
      "name": "Sundaram Medical Foundation (Dr. Rangarajan Memorial Hospital)",
      "hospital_type": "private",
      "address": "4 Shafee Mohammed Road, Shastri Nagar, Chennai 600020",
      "latitude": 13.0249,
      "longitude": 80.2475,
      "phone": "044-23614000",
      "open_24h": true,
      "ambulance_108": false,
      "pmjay_empanelled": false
    },
    {
      "id": "tn-pvt-010",
      "name": "Apollo Speciality Hospitals Vanagaram",
      "hospital_type": "private",
      "address": "Vanagaram, Chennai 600095",
      "latitude": 13.0603,
      "longitude": 80.1588,
      "phone": "044-49004900",
      "open_24h": true,
      "ambulance_108": false,
      "pmjay_empanelled": true
    },
    {
      "id": "tn-pvt-011",
      "name": "MGM Healthcare",
      "hospital_type": "private",
      "address": "Nelson Manickam Road, Aminjikarai, Chennai 600029",
      "latitude": 13.0710,
      "longitude": 80.2215,
      "phone": "044-45001000",
      "open_24h": true,
      "ambulance_108": false,
      "pmjay_empanelled": true
    },
    {
      "id": "tn-pvt-012",
      "name": "Sriram Hospital",
      "hospital_type": "private",
      "address": "2 Cross Street, Egmore, Chennai 600008",
      "latitude": 13.0737,
      "longitude": 80.2612,
      "phone": "044-28195050",
      "open_24h": true,
      "ambulance_108": false,
      "pmjay_empanelled": false
    },
    {
      "id": "tn-pvt-013",
      "name": "Billroth Hospitals",
      "hospital_type": "private",
      "address": "43 Lakshmi Talkies Road, Shenoy Nagar, Chennai 600030",
      "latitude": 13.0805,
      "longitude": 80.2305,
      "phone": "044-26447777",
      "open_24h": true,
      "ambulance_108": false,
      "pmjay_empanelled": false
    },
    {
      "id": "tn-pvt-014",
      "name": "ACS Medical College Hospital",
      "hospital_type": "private",
      "address": "Velappanchavadi, Chennai 600077",
      "latitude": 13.1117,
      "longitude": 80.1671,
      "phone": "044-26813200",
      "open_24h": true,
      "ambulance_108": false,
      "pmjay_empanelled": false
    },
    {
      "id": "tn-pvt-015",
      "name": "Prashanth Hospitals",
      "hospital_type": "private",
      "address": "36/24 Velachery Main Road, Velachery, Chennai 600042",
      "latitude": 12.9816,
      "longitude": 80.2173,
      "phone": "044-22432424",
      "open_24h": true,
      "ambulance_108": false,
      "pmjay_empanelled": false
    },
    {
      "id": "tn-gov-021",
      "name": "Government Hospital Mogappair",
      "hospital_type": "district",
      "address": "Mogappair West, Chennai 600037",
      "latitude": 13.0796,
      "longitude": 80.1841,
      "phone": "044-26562345",
      "open_24h": false,
      "ambulance_108": true,
      "pmjay_empanelled": true
    },
    {
      "id": "tn-gov-022",
      "name": "Government Hospital Mylapore",
      "hospital_type": "district",
      "address": "Mylapore, Chennai 600004",
      "latitude": 13.0368,
      "longitude": 80.2683,
      "phone": "044-24641234",
      "open_24h": false,
      "ambulance_108": true,
      "pmjay_empanelled": true
    },
    {
      "id": "tn-gov-023",
      "name": "Government Hospital Porur",
      "hospital_type": "district",
      "address": "Porur, Chennai 600116",
      "latitude": 13.0358,
      "longitude": 80.1598,
      "phone": "044-24781234",
      "open_24h": false,
      "ambulance_108": true,
      "pmjay_empanelled": true
    },
    {
      "id": "tn-gov-024",
      "name": "Government Hospital Sholinganallur",
      "hospital_type": "district",
      "address": "Sholinganallur, Chennai 600119",
      "latitude": 12.9001,
      "longitude": 80.2280,
      "phone": "044-24503456",
      "open_24h": false,
      "ambulance_108": true,
      "pmjay_empanelled": true
    },
    {
      "id": "tn-gov-025",
      "name": "Government Hospital Nerkundram",
      "hospital_type": "district",
      "address": "Nerkundram, Chennai 600107",
      "latitude": 13.0778,
      "longitude": 80.1762,
      "phone": "044-26262345",
      "open_24h": false,
      "ambulance_108": true,
      "pmjay_empanelled": true
    },
    {
      "id": "tn-phc-011",
      "name": "Primary Health Centre Saidapet",
      "hospital_type": "phc",
      "address": "Saidapet, Chennai 600015",
      "latitude": 13.0201,
      "longitude": 80.2211,
      "phone": "044-22354567",
      "open_24h": false,
      "ambulance_108": false,
      "pmjay_empanelled": true
    },
    {
      "id": "tn-phc-012",
      "name": "Primary Health Centre Virugambakkam",
      "hospital_type": "phc",
      "address": "Virugambakkam, Chennai 600092",
      "latitude": 13.0514,
      "longitude": 80.1944,
      "phone": "044-23761234",
      "open_24h": false,
      "ambulance_108": false,
      "pmjay_empanelled": true
    },
    {
      "id": "tn-phc-013",
      "name": "Urban PHC Chetpet",
      "hospital_type": "phc",
      "address": "Chetpet, Chennai 600031",
      "latitude": 13.0708,
      "longitude": 80.2371,
      "phone": "044-28362345",
      "open_24h": false,
      "ambulance_108": false,
      "pmjay_empanelled": true
    },
    {
      "id": "tn-phc-014",
      "name": "Primary Health Centre Pattabiram",
      "hospital_type": "phc",
      "address": "Pattabiram, Chennai 600072",
      "latitude": 13.1146,
      "longitude": 80.1073,
      "phone": "044-26817890",
      "open_24h": false,
      "ambulance_108": false,
      "pmjay_empanelled": true
    },
    {
      "id": "tn-phc-015",
      "name": "Urban PHC Gopalapuram",
      "hospital_type": "phc",
      "address": "Gopalapuram, Chennai 600086",
      "latitude": 13.0366,
      "longitude": 80.2521,
      "phone": "044-24333456",
      "open_24h": false,
      "ambulance_108": false,
      "pmjay_empanelled": true
    }
  ]
}
